{
  "errcode": 0,
  "errmsg": "",
  "result": [
    {
      "id": 10958834,
      "name": "OK便利店（骏景南苑分店）",
      "retail": "OK便利店",
      "address": "广州市天河区中山大道骏景南苑骏御轩D座101-B铺",
      "distance": "714m",
      "logourl": "",
      "lat": 23.1299991607666,
      "lon": 113.38999938964844
    },
    {
      "id": 10958298,
      "name": "华润万家便利店荟萃雅苑店",
      "retail": "华润万家",
      "address": "广州市大岗镇豪岗大道14-18",
      "distance": "1km",
      "logourl": "",
      "lat": 23.1299991607666,
      "lon": 113.41000366210938
    },
    {
      "id": 10958297,
      "name": "华润万家便利店（天安菁华分店）",
      "retail": "华润万家",
      "address": "广州市番禺节能科技园内天安菁华公寓2栋12.13号商铺物业",
      "distance": "1km",
      "logourl": "",
      "lat": 23.1299991607666,
      "lon": 113.37999725341797
    },
    {
      "id": 10958263,
      "name": "华润万家便利店（旭景家园店）",
      "retail": "华润万家",
      "address": "广州市天河区旭景街96-102号商铺",
      "distance": "2km",
      "logourl": "",
      "lat": 23.1200008392334,
      "lon": 113.41000366210938
    },
    {
      "id": 10958257,
      "name": "华润万家便利店（东圃店）",
      "retail": "华润万家",
      "address": "广州市天河区中山大道282号东圃商业广场A座首二层",
      "distance": "2km",
      "logourl": "",
      "lat": 23.1200008392334,
      "lon": 113.41000366210938
    },
    {
      "id": 10958287,
      "name": "华润万家便利店龙洞瑜翠园店",
      "retail": "华润万家",
      "address": "广州市天河区龙洞迎龙大道南荟茏路12号",
      "distance": "2km",
      "logourl": "",
      "lat": 23.1299991607666,
      "lon": 113.37000274658203
    },
    {
      "id": 10958285,
      "name": "华润万家便利店宝翠园店",
      "retail": "华润万家",
      "address": "广州市天河区宝翠路6号101号102号",
      "distance": "2km",
      "logourl": "",
      "lat": 23.1299991607666,
      "lon": 113.37000274658203
    },
    {
      "id": 10958286,
      "name": "万家龙洞店",
      "retail": "华润万家",
      "address": "广州市天河区迎龙路6号华润万佳",
      "distance": "2km",
      "logourl": "",
      "lat": 23.1299991607666,
      "lon": 113.37000274658203
    },
    {
      "id": 10958249,
      "name": "华润万家便利店员村地铁便利店",
      "retail": "华润万家",
      "address": "广州市天河区地铁5号线员村站YC-5-1S商铺",
      "distance": "3km",
      "logourl": "",
      "lat": 23.1200008392334,
      "lon": 113.37000274658203
    },
    {
      "id": 10958274,
      "name": "华润万家便利店（小城之春分店）",
      "retail": "华润万家",
      "address": "广州1市天河区粤生街48号111铺自编首层1、2 号铺",
      "distance": "3km",
      "logourl": "",
      "lat": 23.1200008392334,
      "lon": 113.37000274658203
    }
  ]
}